[
    {
        "id_camion": 1,
        "pedidos": [
            {
                "id_pedido": "2885158",
                "nombre_producto": "Leche entera 500ml",
                "cantidad": 752,
                "destino": "Sevilla"
            },
            {
                "id_pedido": "5068142",
                "nombre_producto": "Leche entera 500ml",
                "cantidad": 765,
                "destino": "Córdoba"
            }
        ],
        "ruta_optima": [
            {
                "nombre": "Mataró",
                "lat": "41.532521",
                "lon": "2.423604"
            },
            {
                "nombre": "Sevilla",
                "lat": "37.269298",
                "lon": " -5.994452"
            },
            {
                "nombre": "Córdoba",
                "lat": "37.875219",
                "lon": " -4.763063"
            },
            {
                "nombre": "Mataró",
                "lat": "41.532521",
                "lon": "2.423604"
            }
        ],
        "distancia_total": 1728.63,
        "tiempo_total_horas": 17.29,
        "coste_total": 1037.18,
        "ingresos": 2275.5,
        "beneficio": 1238.32
    },
    {
        "id_camion": 2,
        "pedidos": [
            {
                "id_pedido": "1759677",
                "nombre_producto": "Leche entera 500ml",
                "cantidad": 719,
                "destino": "Santarém"
            },
            {
                "id_pedido": "9061111",
                "nombre_producto": "Leche entera 500ml",
                "cantidad": 589,
                "destino": "Portalegre"
            },
            {
                "id_pedido": "4654341",
                "nombre_producto": "Leche entera 500ml",
                "cantidad": 596,
                "destino": "Teruel"
            }
        ],
        "ruta_optima": [
            {
                "nombre": "Mataró",
                "lat": "41.532521",
                "lon": "2.423604"
            },
            {
                "nombre": "Santarém",
                "lat": "39.24899",
                "lon": " -8.674233"
            },
            {
                "nombre": "Portalegre",
                "lat": "39.268988",
                "lon": " -7.43448"
            },
            {
                "nombre": "Teruel",
                "lat": "40.365727",
                "lon": " -1.157177"
            },
            {
                "nombre": "Mataró",
                "lat": "41.532521",
                "lon": "2.423604"
            }
        ],
        "distancia_total": 1956.74,
        "tiempo_total_horas": 19.57,
        "coste_total": 1174.04,
        "ingresos": 2856.0,
        "beneficio": 1681.96
    },
    {
        "id_camion": 3,
        "pedidos": [
            {
                "id_pedido": "7369207",
                "nombre_producto": "Leche entera 500ml",
                "cantidad": 724,
                "destino": "Encamp"
            }
        ],
        "ruta_optima": [
            {
                "nombre": "Mataró",
                "lat": "41.532521",
                "lon": "2.423604"
            },
            {
                "nombre": "Encamp",
                "lat": "42.463523",
                "lon": " 1.491706"
            },
            {
                "nombre": "Mataró",
                "lat": "41.532521",
                "lon": "2.423604"
            }
        ],
        "distancia_total": 258.04,
        "tiempo_total_horas": 2.58,
        "coste_total": 154.83,
        "ingresos": 1086.0,
        "beneficio": 931.17
    },
    {
        "id_camion": 4,
        "pedidos": [
            {
                "id_pedido": "7431745",
                "nombre_producto": "Tocino ahumado en lonchas 200gr",
                "cantidad": 765,
                "destino": "Girona"
            },
            {
                "id_pedido": "2128479",
                "nombre_producto": "Tocino ahumado en lonchas 200gr",
                "cantidad": 806,
                "destino": "Burgos"
            }
        ],
        "ruta_optima": [
            {
                "nombre": "Mataró",
                "lat": "41.532521",
                "lon": "2.423604"
            },
            {
                "nombre": "Burgos",
                "lat": "42.362387",
                "lon": " -3.624425"
            },
            {
                "nombre": "Girona",
                "lat": "41.81271",
                "lon": " -2.725645"
            },
            {
                "nombre": "Mataró",
                "lat": "41.532521",
                "lon": "2.423604"
            }
        ],
        "distancia_total": 1033.37,
        "tiempo_total_horas": 10.33,
        "coste_total": 620.02,
        "ingresos": 5969.8,
        "beneficio": 5349.78
    },
    {
        "id_camion": 5,
        "pedidos": [
            {
                "id_pedido": "1608706",
                "nombre_producto": "Tocino ahumado en lonchas 200gr",
                "cantidad": 666,
                "destino": "Andorra la Vella"
            }
        ],
        "ruta_optima": [
            {
                "nombre": "Mataró",
                "lat": "41.532521",
                "lon": "2.423604"
            },
            {
                "nombre": "Andorra la Vella",
                "lat": "42.483562",
                "lon": " 1.490046"
            },
            {
                "nombre": "Mataró",
                "lat": "41.532521",
                "lon": "2.423604"
            }
        ],
        "distancia_total": 261.78,
        "tiempo_total_horas": 2.62,
        "coste_total": 157.07,
        "ingresos": 2530.8,
        "beneficio": 2373.73
    },
    {
        "id_camion": 6,
        "pedidos": [
            {
                "id_pedido": "6878669",
                "nombre_producto": "Manzanas rojas (6 unidades, aprox. 1kg)",
                "cantidad": 656,
                "destino": "Portalegre"
            },
            {
                "id_pedido": "7052016",
                "nombre_producto": "Manzanas rojas (6 unidades, aprox. 1kg)",
                "cantidad": 892,
                "destino": "Valladolid"
            }
        ],
        "ruta_optima": [
            {
                "nombre": "Mataró",
                "lat": "41.532521",
                "lon": "2.423604"
            },
            {
                "nombre": "Portalegre",
                "lat": "39.268988",
                "lon": " -7.43448"
            },
            {
                "nombre": "Valladolid",
                "lat": "41.541969",
                "lon": " -4.663801"
            },
            {
                "nombre": "Mataró",
                "lat": "41.532521",
                "lon": "2.423604"
            }
        ],
        "distancia_total": 1805.84,
        "tiempo_total_horas": 18.06,
        "coste_total": 1083.51,
        "ingresos": 3715.2,
        "beneficio": 2631.69
    },
    {
        "id_camion": 7,
        "pedidos": [
            {
                "id_pedido": "2754980",
                "nombre_producto": "Manzanas rojas (6 unidades, aprox. 1kg)",
                "cantidad": 982,
                "destino": "Zaragoza"
            },
            {
                "id_pedido": "8759308",
                "nombre_producto": "Manzanas rojas (6 unidades, aprox. 1kg)",
                "cantidad": 943,
                "destino": "Palencia"
            }
        ],
        "ruta_optima": [
            {
                "nombre": "Mataró",
                "lat": "41.532521",
                "lon": "2.423604"
            },
            {
                "nombre": "Palencia",
                "lat": "41.964811",
                "lon": " -4.506013"
            },
            {
                "nombre": "Zaragoza",
                "lat": "41.734671",
                "lon": " -1.206108"
            },
            {
                "nombre": "Mataró",
                "lat": "41.532521",
                "lon": "2.423604"
            }
        ],
        "distancia_total": 1153.7,
        "tiempo_total_horas": 11.54,
        "coste_total": 692.22,
        "ingresos": 4620.0,
        "beneficio": 3927.78
    },
    {
        "id_camion": 8,
        "pedidos": [
            {
                "id_pedido": "7158971",
                "nombre_producto": "Plátanos maduros (6 unidades, aprox. 1kg)",
                "cantidad": 825,
                "destino": "Córdoba"
            },
            {
                "id_pedido": "2792170",
                "nombre_producto": "Plátanos maduros (6 unidades, aprox. 1kg)",
                "cantidad": 605,
                "destino": "Lugo"
            }
        ],
        "ruta_optima": [
            {
                "nombre": "Mataró",
                "lat": "41.532521",
                "lon": "2.423604"
            },
            {
                "nombre": "Lugo",
                "lat": "43.039131",
                "lon": " -7.550207"
            },
            {
                "nombre": "Córdoba",
                "lat": "37.875219",
                "lon": " -4.763063"
            },
            {
                "nombre": "Mataró",
                "lat": "41.532521",
                "lon": "2.423604"
            }
        ],
        "distancia_total": 2194.22,
        "tiempo_total_horas": 21.94,
        "coste_total": 1316.53,
        "ingresos": 2860.0,
        "beneficio": 1543.47
    },
    {
        "id_camion": 9,
        "pedidos": [
            {
                "id_pedido": "7342207",
                "nombre_producto": "Fresas frescas (caja de 250gr)",
                "cantidad": 711,
                "destino": "Santarém"
            },
            {
                "id_pedido": "3232259",
                "nombre_producto": "Fresas frescas (caja de 250gr)",
                "cantidad": 635,
                "destino": "Coimbra"
            }
        ],
        "ruta_optima": [
            {
                "nombre": "Mataró",
                "lat": "41.532521",
                "lon": "2.423604"
            },
            {
                "nombre": "Santarém",
                "lat": "39.24899",
                "lon": " -8.674233"
            },
            {
                "nombre": "Coimbra",
                "lat": "40.190739",
                "lon": " -8.517509"
            },
            {
                "nombre": "Mataró",
                "lat": "41.532521",
                "lon": "2.423604"
            }
        ],
        "distancia_total": 2009.83,
        "tiempo_total_horas": 20.1,
        "coste_total": 1205.9,
        "ingresos": 4038.0,
        "beneficio": 2832.1
    },
    {
        "id_camion": 10,
        "pedidos": [
            {
                "id_pedido": "2321196",
                "nombre_producto": "Fresas frescas (caja de 250gr)",
                "cantidad": 870,
                "destino": "Oporto"
            }
        ],
        "ruta_optima": [
            {
                "nombre": "Mataró",
                "lat": "41.532521",
                "lon": "2.423604"
            },
            {
                "nombre": "Oporto",
                "lat": "41.116767",
                "lon": " -8.574959"
            },
            {
                "nombre": "Mataró",
                "lat": "41.532521",
                "lon": "2.423604"
            }
        ],
        "distancia_total": 1837.96,
        "tiempo_total_horas": 18.38,
        "coste_total": 1102.77,
        "ingresos": 2610.0,
        "beneficio": 1507.23
    },
    {
        "id_camion": 11,
        "pedidos": [
            {
                "id_pedido": "1486012",
                "nombre_producto": "Fresas frescas (caja de 250gr)",
                "cantidad": 1387,
                "destino": "Soria"
            }
        ],
        "ruta_optima": [
            {
                "nombre": "Mataró",
                "lat": "41.532521",
                "lon": "2.423604"
            },
            {
                "nombre": "Soria",
                "lat": "41.78641",
                "lon": " -1.989204"
            },
            {
                "nombre": "Mataró",
                "lat": "41.532521",
                "lon": "2.423604"
            }
        ],
        "distancia_total": 735.27,
        "tiempo_total_horas": 7.35,
        "coste_total": 441.16,
        "ingresos": 4161.0,
        "beneficio": 3719.84
    },
    {
        "id_camion": 12,
        "pedidos": [
            {
                "id_pedido": "3694150",
                "nombre_producto": "Espinacas frescas en bolsa 300gr",
                "cantidad": 905,
                "destino": "Cáceres"
            },
            {
                "id_pedido": "1193625",
                "nombre_producto": "Espinacas frescas en bolsa 300gr",
                "cantidad": 984,
                "destino": "Aveiro"
            }
        ],
        "ruta_optima": [
            {
                "nombre": "Mataró",
                "lat": "41.532521",
                "lon": "2.423604"
            },
            {
                "nombre": "Aveiro",
                "lat": "40.551625",
                "lon": " -8.553303"
            },
            {
                "nombre": "Cáceres",
                "lat": "39.449253",
                "lon": " -6.381213"
            },
            {
                "nombre": "Mataró",
                "lat": "41.532521",
                "lon": "2.423604"
            }
        ],
        "distancia_total": 1927.68,
        "tiempo_total_horas": 19.28,
        "coste_total": 1156.61,
        "ingresos": 2833.5,
        "beneficio": 1676.89
    },
    {
        "id_camion": 13,
        "pedidos": [
            {
                "id_pedido": "7093492",
                "nombre_producto": "Espinacas frescas en bolsa 300gr",
                "cantidad": 555,
                "destino": "Braganza"
            },
            {
                "id_pedido": "4745257",
                "nombre_producto": "Espinacas frescas en bolsa 300gr",
                "cantidad": 816,
                "destino": "Andorra la Vella"
            }
        ],
        "ruta_optima": [
            {
                "nombre": "Mataró",
                "lat": "41.532521",
                "lon": "2.423604"
            },
            {
                "nombre": "Braganza",
                "lat": "41.788533",
                "lon": " -6.779713"
            },
            {
                "nombre": "Andorra la Vella",
                "lat": "42.483562",
                "lon": " 1.490046"
            },
            {
                "nombre": "Mataró",
                "lat": "41.532521",
                "lon": "2.423604"
            }
        ],
        "distancia_total": 1581.59,
        "tiempo_total_horas": 15.82,
        "coste_total": 948.95,
        "ingresos": 2056.5,
        "beneficio": 1107.55
    },
    {
        "id_camion": 14,
        "pedidos": [
            {
                "id_pedido": "2243169",
                "nombre_producto": "Espinacas frescas en bolsa 300gr",
                "cantidad": 867,
                "destino": "Lugo"
            }
        ],
        "ruta_optima": [
            {
                "nombre": "Mataró",
                "lat": "41.532521",
                "lon": "2.423604"
            },
            {
                "nombre": "Lugo",
                "lat": "43.039131",
                "lon": " -7.550207"
            },
            {
                "nombre": "Mataró",
                "lat": "41.532521",
                "lon": "2.423604"
            }
        ],
        "distancia_total": 1673.7,
        "tiempo_total_horas": 16.74,
        "coste_total": 1004.22,
        "ingresos": 1300.5,
        "beneficio": 296.28
    },
    {
        "id_camion": 15,
        "pedidos": [
            {
                "id_pedido": "7942488",
                "nombre_producto": "Lechuga romana 1 unidad",
                "cantidad": 799,
                "destino": "Málaga"
            },
            {
                "id_pedido": "4116771",
                "nombre_producto": "Lechuga romana 1 unidad",
                "cantidad": 573,
                "destino": "Cuenca"
            }
        ],
        "ruta_optima": [
            {
                "nombre": "Mataró",
                "lat": "41.532521",
                "lon": "2.423604"
            },
            {
                "nombre": "Málaga",
                "lat": "36.702452",
                "lon": " -4.472161"
            },
            {
                "nombre": "Cuenca",
                "lat": "39.718055",
                "lon": " -1.437577"
            },
            {
                "nombre": "Mataró",
                "lat": "41.532521",
                "lon": "2.423604"
            }
        ],
        "distancia_total": 1611.6,
        "tiempo_total_horas": 16.12,
        "coste_total": 966.96,
        "ingresos": 1646.4,
        "beneficio": 679.44
    },
    {
        "id_camion": 16,
        "pedidos": [
            {
                "id_pedido": "9700840",
                "nombre_producto": "Lechuga romana 1 unidad",
                "cantidad": 674,
                "destino": "Viana do Castelo"
            }
        ],
        "ruta_optima": [
            {
                "nombre": "Mataró",
                "lat": "41.532521",
                "lon": "2.423604"
            },
            {
                "nombre": "Viana do Castelo",
                "lat": "41.712777",
                "lon": " -8.85317"
            },
            {
                "nombre": "Mataró",
                "lat": "41.532521",
                "lon": "2.423604"
            }
        ],
        "distancia_total": 1873.79,
        "tiempo_total_horas": 18.74,
        "coste_total": 1124.27,
        "ingresos": 808.8,
        "beneficio": -315.47
    },
    {
        "id_camion": 17,
        "pedidos": [
            {
                "id_pedido": "9163524",
                "nombre_producto": "Tomates maduros (aprox. 1kg)",
                "cantidad": 776,
                "destino": "Granada"
            },
            {
                "id_pedido": "3799922",
                "nombre_producto": "Tomates maduros (aprox. 1kg)",
                "cantidad": 674,
                "destino": "Guadalajara"
            }
        ],
        "ruta_optima": [
            {
                "nombre": "Mataró",
                "lat": "41.532521",
                "lon": "2.423604"
            },
            {
                "nombre": "Granada",
                "lat": "37.202971",
                "lon": " -3.660833"
            },
            {
                "nombre": "Guadalajara",
                "lat": "40.620066",
                "lon": " -3.28023"
            },
            {
                "nombre": "Mataró",
                "lat": "41.532521",
                "lon": "2.423604"
            }
        ],
        "distancia_total": 1580.57,
        "tiempo_total_horas": 15.81,
        "coste_total": 948.34,
        "ingresos": 3335.0,
        "beneficio": 2386.66
    },
    {
        "id_camion": 18,
        "pedidos": [
            {
                "id_pedido": "7523804",
                "nombre_producto": "Tomates maduros (aprox. 1kg)",
                "cantidad": 1356,
                "destino": "Salamanca"
            }
        ],
        "ruta_optima": [
            {
                "nombre": "Mataró",
                "lat": "41.532521",
                "lon": "2.423604"
            },
            {
                "nombre": "Salamanca",
                "lat": "40.96337",
                "lon": " -5.734527"
            },
            {
                "nombre": "Mataró",
                "lat": "41.532521",
                "lon": "2.423604"
            }
        ],
        "distancia_total": 1369.44,
        "tiempo_total_horas": 13.69,
        "coste_total": 821.66,
        "ingresos": 3118.8,
        "beneficio": 2297.14
    },
    {
        "id_camion": 19,
        "pedidos": [
            {
                "id_pedido": "9833683",
                "nombre_producto": "Tomates maduros (aprox. 1kg)",
                "cantidad": 890,
                "destino": "Braga"
            },
            {
                "id_pedido": "9897771",
                "nombre_producto": "Tomates maduros (aprox. 1kg)",
                "cantidad": 776,
                "destino": "Escaldes-Engordany"
            }
        ],
        "ruta_optima": [
            {
                "nombre": "Mataró",
                "lat": "41.532521",
                "lon": "2.423604"
            },
            {
                "nombre": "Braga",
                "lat": "41.53178",
                "lon": " -8.2422746"
            },
            {
                "nombre": "Escaldes-Engordany",
                "lat": "42.508834",
                "lon": " 1.532288"
            },
            {
                "nombre": "Mataró",
                "lat": "41.532521",
                "lon": "2.423604"
            }
        ],
        "distancia_total": 1832.68,
        "tiempo_total_horas": 18.33,
        "coste_total": 1099.61,
        "ingresos": 3831.8,
        "beneficio": 2732.19
    },
    {
        "id_camion": 20,
        "pedidos": [
            {
                "id_pedido": "3337406",
                "nombre_producto": "Cebollas amarillas (aprox. 1kg)",
                "cantidad": 567,
                "destino": "Huelva"
            },
            {
                "id_pedido": "1325192",
                "nombre_producto": "Cebollas amarillas (aprox. 1kg)",
                "cantidad": 892,
                "destino": "Toledo"
            }
        ],
        "ruta_optima": [
            {
                "nombre": "Mataró",
                "lat": "41.532521",
                "lon": "2.423604"
            },
            {
                "nombre": "Huelva",
                "lat": "37.253795",
                "lon": " -7.229716"
            },
            {
                "nombre": "Toledo",
                "lat": "40.183041",
                "lon": " -3.723122"
            },
            {
                "nombre": "Mataró",
                "lat": "41.532521",
                "lon": "2.423604"
            }
        ],
        "distancia_total": 1939.2,
        "tiempo_total_horas": 19.39,
        "coste_total": 1163.52,
        "ingresos": 2626.2,
        "beneficio": 1462.68
    },
    {
        "id_camion": 21,
        "pedidos": [
            {
                "id_pedido": "1883150",
                "nombre_producto": "Cebollas amarillas (aprox. 1kg)",
                "cantidad": 729,
                "destino": "Girona"
            }
        ],
        "ruta_optima": [
            {
                "nombre": "Mataró",
                "lat": "41.532521",
                "lon": "2.423604"
            },
            {
                "nombre": "Girona",
                "lat": "41.81271",
                "lon": " -2.725645"
            },
            {
                "nombre": "Mataró",
                "lat": "41.532521",
                "lon": "2.423604"
            }
        ],
        "distancia_total": 857.51,
        "tiempo_total_horas": 8.58,
        "coste_total": 514.5,
        "ingresos": 1312.2,
        "beneficio": 797.7
    },
    {
        "id_camion": 22,
        "pedidos": [
            {
                "id_pedido": "1204929",
                "nombre_producto": "Zanahorias frescas (500gr)",
                "cantidad": 971,
                "destino": "Almería"
            },
            {
                "id_pedido": "6040177",
                "nombre_producto": "Zanahorias frescas (500gr)",
                "cantidad": 850,
                "destino": "Alicante"
            }
        ],
        "ruta_optima": [
            {
                "nombre": "Mataró",
                "lat": "41.532521",
                "lon": "2.423604"
            },
            {
                "nombre": "Almería",
                "lat": "36.783819",
                "lon": " -2.742398"
            },
            {
                "nombre": "Alicante",
                "lat": "38.34061",
                "lon": " -0.539066"
            },
            {
                "nombre": "Mataró",
                "lat": "41.532521",
                "lon": "2.423604"
            }
        ],
        "distancia_total": 1386.23,
        "tiempo_total_horas": 13.86,
        "coste_total": 831.74,
        "ingresos": 2731.5,
        "beneficio": 1899.76
    },
    {
        "id_camion": 23,
        "pedidos": [
            {
                "id_pedido": "9118778",
                "nombre_producto": "Zanahorias frescas (500gr)",
                "cantidad": 882,
                "destino": "Santarém"
            },
            {
                "id_pedido": "4252350",
                "nombre_producto": "Zanahorias frescas (500gr)",
                "cantidad": 983,
                "destino": "Guarda"
            }
        ],
        "ruta_optima": [
            {
                "nombre": "Mataró",
                "lat": "41.532521",
                "lon": "2.423604"
            },
            {
                "nombre": "Santarém",
                "lat": "39.24899",
                "lon": " -8.674233"
            },
            {
                "nombre": "Guarda",
                "lat": "40.582396",
                "lon": " -7.154403"
            },
            {
                "nombre": "Mataró",
                "lat": "41.532521",
                "lon": "2.423604"
            }
        ],
        "distancia_total": 1979.3,
        "tiempo_total_horas": 19.79,
        "coste_total": 1187.58,
        "ingresos": 2797.5,
        "beneficio": 1609.92
    },
    {
        "id_camion": 24,
        "pedidos": [
            {
                "id_pedido": "3683559",
                "nombre_producto": "Zanahorias frescas (500gr)",
                "cantidad": 733,
                "destino": "Viana do Castelo"
            },
            {
                "id_pedido": "3565886",
                "nombre_producto": "Zanahorias frescas (500gr)",
                "cantidad": 798,
                "destino": "Gipuzkoa"
            }
        ],
        "ruta_optima": [
            {
                "nombre": "Mataró",
                "lat": "41.532521",
                "lon": "2.423604"
            },
            {
                "nombre": "Viana do Castelo",
                "lat": "41.712777",
                "lon": " -8.85317"
            },
            {
                "nombre": "Gipuzkoa",
                "lat": "43.264309",
                "lon": " -1.972006"
            },
            {
                "nombre": "Mataró",
                "lat": "41.532521",
                "lon": "2.423604"
            }
        ],
        "distancia_total": 1935.73,
        "tiempo_total_horas": 19.36,
        "coste_total": 1161.44,
        "ingresos": 2296.5,
        "beneficio": 1135.06
    },
    {
        "id_camion": 25,
        "pedidos": [
            {
                "id_pedido": "8650264",
                "nombre_producto": "Zanahorias frescas (500gr)",
                "cantidad": 715,
                "destino": "A Coruña"
            }
        ],
        "ruta_optima": [
            {
                "nombre": "Mataró",
                "lat": "41.532521",
                "lon": "2.423604"
            },
            {
                "nombre": "A Coruña",
                "lat": "43.269516",
                "lon": " -8.411087"
            },
            {
                "nombre": "Mataró",
                "lat": "41.532521",
                "lon": "2.423604"
            }
        ],
        "distancia_total": 1819.33,
        "tiempo_total_horas": 18.19,
        "coste_total": 1091.6,
        "ingresos": 1072.5,
        "beneficio": -19.1
    },
    {
        "id_camion": 26,
        "pedidos": [
            {
                "id_pedido": "7734456",
                "nombre_producto": "Patatas para cocinar (1kg)",
                "cantidad": 788,
                "destino": "Granada"
            },
            {
                "id_pedido": "7379853",
                "nombre_producto": "Patatas para cocinar (1kg)",
                "cantidad": 781,
                "destino": "Alicante"
            }
        ],
        "ruta_optima": [
            {
                "nombre": "Mataró",
                "lat": "41.532521",
                "lon": "2.423604"
            },
            {
                "nombre": "Granada",
                "lat": "37.202971",
                "lon": " -3.660833"
            },
            {
                "nombre": "Alicante",
                "lat": "38.34061",
                "lon": " -0.539066"
            },
            {
                "nombre": "Mataró",
                "lat": "41.532521",
                "lon": "2.423604"
            }
        ],
        "distancia_total": 1448.21,
        "tiempo_total_horas": 14.48,
        "coste_total": 868.93,
        "ingresos": 3138.0,
        "beneficio": 2269.07
    },
    {
        "id_camion": 27,
        "pedidos": [
            {
                "id_pedido": "5983207",
                "nombre_producto": "Patatas para cocinar (1kg)",
                "cantidad": 565,
                "destino": "Setúbal"
            },
            {
                "id_pedido": "9397045",
                "nombre_producto": "Patatas para cocinar (1kg)",
                "cantidad": 755,
                "destino": "Évora"
            }
        ],
        "ruta_optima": [
            {
                "nombre": "Mataró",
                "lat": "41.532521",
                "lon": "2.423604"
            },
            {
                "nombre": "Setúbal",
                "lat": "38.541717",
                "lon": " -8.827679"
            },
            {
                "nombre": "Évora",
                "lat": "38.544685",
                "lon": " -7.915859"
            },
            {
                "nombre": "Mataró",
                "lat": "41.532521",
                "lon": "2.423604"
            }
        ],
        "distancia_total": 2032.41,
        "tiempo_total_horas": 20.32,
        "coste_total": 1219.45,
        "ingresos": 2640.0,
        "beneficio": 1420.55
    },
    {
        "id_camion": 28,
        "pedidos": [
            {
                "id_pedido": "9913325",
                "nombre_producto": "Patatas para cocinar (1kg)",
                "cantidad": 778,
                "destino": "Cáceres"
            },
            {
                "id_pedido": "9687538",
                "nombre_producto": "Patatas para cocinar (1kg)",
                "cantidad": 572,
                "destino": "Castellón"
            }
        ],
        "ruta_optima": [
            {
                "nombre": "Mataró",
                "lat": "41.532521",
                "lon": "2.423604"
            },
            {
                "nombre": "Cáceres",
                "lat": "39.449253",
                "lon": " -6.381213"
            },
            {
                "nombre": "Castellón",
                "lat": "39.97722",
                "lon": " -0.008643"
            },
            {
                "nombre": "Mataró",
                "lat": "41.532521",
                "lon": "2.423604"
            }
        ],
        "distancia_total": 1595.57,
        "tiempo_total_horas": 15.96,
        "coste_total": 957.34,
        "ingresos": 2700.0,
        "beneficio": 1742.66
    },
    {
        "id_camion": 29,
        "pedidos": [
            {
                "id_pedido": "2227126",
                "nombre_producto": "Patatas para cocinar (1kg)",
                "cantidad": 662,
                "destino": "Guarda"
            },
            {
                "id_pedido": "7070503",
                "nombre_producto": "Patatas para cocinar (1kg)",
                "cantidad": 817,
                "destino": "Salamanca"
            }
        ],
        "ruta_optima": [
            {
                "nombre": "Mataró",
                "lat": "41.532521",
                "lon": "2.423604"
            },
            {
                "nombre": "Guarda",
                "lat": "40.582396",
                "lon": " -7.154403"
            },
            {
                "nombre": "Salamanca",
                "lat": "40.96337",
                "lon": " -5.734527"
            },
            {
                "nombre": "Mataró",
                "lat": "41.532521",
                "lon": "2.423604"
            }
        ],
        "distancia_total": 1621.14,
        "tiempo_total_horas": 16.21,
        "coste_total": 972.68,
        "ingresos": 2958.0,
        "beneficio": 1985.32
    },
    {
        "id_camion": 30,
        "pedidos": [
            {
                "id_pedido": "6588836",
                "nombre_producto": "Huevos frescos (4 unidades)",
                "cantidad": 575,
                "destino": "Almería"
            },
            {
                "id_pedido": "6779367",
                "nombre_producto": "Huevos frescos (4 unidades)",
                "cantidad": 678,
                "destino": "Toledo"
            }
        ],
        "ruta_optima": [
            {
                "nombre": "Mataró",
                "lat": "41.532521",
                "lon": "2.423604"
            },
            {
                "nombre": "Almería",
                "lat": "36.783819",
                "lon": " -2.742398"
            },
            {
                "nombre": "Toledo",
                "lat": "40.183041",
                "lon": " -3.723122"
            },
            {
                "nombre": "Mataró",
                "lat": "41.532521",
                "lon": "2.423604"
            }
        ],
        "distancia_total": 1616.15,
        "tiempo_total_horas": 16.16,
        "coste_total": 969.69,
        "ingresos": 1127.7,
        "beneficio": 158.01
    },
    {
        "id_camion": 31,
        "pedidos": [
            {
                "id_pedido": "9781011",
                "nombre_producto": "Huevos frescos (4 unidades)",
                "cantidad": 783,
                "destino": "Coimbra"
            },
            {
                "id_pedido": "4817242",
                "nombre_producto": "Huevos frescos (4 unidades)",
                "cantidad": 918,
                "destino": "Guarda"
            }
        ],
        "ruta_optima": [
            {
                "nombre": "Mataró",
                "lat": "41.532521",
                "lon": "2.423604"
            },
            {
                "nombre": "Coimbra",
                "lat": "40.190739",
                "lon": " -8.517509"
            },
            {
                "nombre": "Guarda",
                "lat": "40.582396",
                "lon": " -7.154403"
            },
            {
                "nombre": "Mataró",
                "lat": "41.532521",
                "lon": "2.423604"
            }
        ],
        "distancia_total": 1864.42,
        "tiempo_total_horas": 18.64,
        "coste_total": 1118.65,
        "ingresos": 1530.9,
        "beneficio": 412.25
    },
    {
        "id_camion": 32,
        "pedidos": [
            {
                "id_pedido": "6098921",
                "nombre_producto": "Huevos frescos (4 unidades)",
                "cantidad": 850,
                "destino": "Zaragoza"
            }
        ],
        "ruta_optima": [
            {
                "nombre": "Mataró",
                "lat": "41.532521",
                "lon": "2.423604"
            },
            {
                "nombre": "Zaragoza",
                "lat": "41.734671",
                "lon": " -1.206108"
            },
            {
                "nombre": "Mataró",
                "lat": "41.532521",
                "lon": "2.423604"
            }
        ],
        "distancia_total": 604.94,
        "tiempo_total_horas": 6.05,
        "coste_total": 362.97,
        "ingresos": 765.0,
        "beneficio": 402.03
    },
    {
        "id_camion": 33,
        "pedidos": [
            {
                "id_pedido": "3841320",
                "nombre_producto": "Huevos frescos (4 unidades)",
                "cantidad": 1455,
                "destino": "Lugo"
            }
        ],
        "ruta_optima": [
            {
                "nombre": "Mataró",
                "lat": "41.532521",
                "lon": "2.423604"
            },
            {
                "nombre": "Lugo",
                "lat": "43.039131",
                "lon": " -7.550207"
            },
            {
                "nombre": "Mataró",
                "lat": "41.532521",
                "lon": "2.423604"
            }
        ],
        "distancia_total": 1673.7,
        "tiempo_total_horas": 16.74,
        "coste_total": 1004.22,
        "ingresos": 1309.5,
        "beneficio": 305.28
    },
    {
        "id_camion": 34,
        "pedidos": [
            {
                "id_pedido": "4955933",
                "nombre_producto": "Pan fresco de hogaza (500gr)",
                "cantidad": 692,
                "destino": "Sevilla"
            },
            {
                "id_pedido": "1320233",
                "nombre_producto": "Pan fresco de hogaza (500gr)",
                "cantidad": 738,
                "destino": "Palencia"
            }
        ],
        "ruta_optima": [
            {
                "nombre": "Mataró",
                "lat": "41.532521",
                "lon": "2.423604"
            },
            {
                "nombre": "Sevilla",
                "lat": "37.269298",
                "lon": " -5.994452"
            },
            {
                "nombre": "Palencia",
                "lat": "41.964811",
                "lon": " -4.506013"
            },
            {
                "nombre": "Mataró",
                "lat": "41.532521",
                "lon": "2.423604"
            }
        ],
        "distancia_total": 1978.32,
        "tiempo_total_horas": 19.78,
        "coste_total": 1186.99,
        "ingresos": 2574.0,
        "beneficio": 1387.01
    },
    {
        "id_camion": 35,
        "pedidos": [
            {
                "id_pedido": "3678612",
                "nombre_producto": "Pan fresco de hogaza (500gr)",
                "cantidad": 793,
                "destino": "Encamp"
            }
        ],
        "ruta_optima": [
            {
                "nombre": "Mataró",
                "lat": "41.532521",
                "lon": "2.423604"
            },
            {
                "nombre": "Encamp",
                "lat": "42.463523",
                "lon": " 1.491706"
            },
            {
                "nombre": "Mataró",
                "lat": "41.532521",
                "lon": "2.423604"
            }
        ],
        "distancia_total": 258.04,
        "tiempo_total_horas": 2.58,
        "coste_total": 154.83,
        "ingresos": 1427.4,
        "beneficio": 1272.57
    },
    {
        "id_camion": 36,
        "pedidos": [
            {
                "id_pedido": "3912197",
                "nombre_producto": "Pan fresco de hogaza (500gr)",
                "cantidad": 1401,
                "destino": "Ourense"
            }
        ],
        "ruta_optima": [
            {
                "nombre": "Mataró",
                "lat": "41.532521",
                "lon": "2.423604"
            },
            {
                "nombre": "Ourense",
                "lat": "42.910419",
                "lon": " -8.515368"
            },
            {
                "nombre": "Mataró",
                "lat": "41.532521",
                "lon": "2.423604"
            }
        ],
        "distancia_total": 1826.06,
        "tiempo_total_horas": 18.26,
        "coste_total": 1095.64,
        "ingresos": 2521.8,
        "beneficio": 1426.16
    },
    {
        "id_camion": 37,
        "pedidos": [
            {
                "id_pedido": "1956691",
                "nombre_producto": "Pan fresco de hogaza (500gr)",
                "cantidad": 1585,
                "destino": "Gipuzkoa"
            }
        ],
        "ruta_optima": [
            {
                "nombre": "Mataró",
                "lat": "41.532521",
                "lon": "2.423604"
            },
            {
                "nombre": "Gipuzkoa",
                "lat": "43.264309",
                "lon": " -1.972006"
            },
            {
                "nombre": "Mataró",
                "lat": "41.532521",
                "lon": "2.423604"
            }
        ],
        "distancia_total": 818.04,
        "tiempo_total_horas": 8.18,
        "coste_total": 490.83,
        "ingresos": 2853.0,
        "beneficio": 2362.17
    },
    {
        "id_camion": 38,
        "pedidos": [
            {
                "id_pedido": "8755428",
                "nombre_producto": "Queso cheddar 200gr",
                "cantidad": 836,
                "destino": "Málaga"
            },
            {
                "id_pedido": "9475680",
                "nombre_producto": "Queso cheddar 200gr",
                "cantidad": 753,
                "destino": "Huelva"
            }
        ],
        "ruta_optima": [
            {
                "nombre": "Mataró",
                "lat": "41.532521",
                "lon": "2.423604"
            },
            {
                "nombre": "Huelva",
                "lat": "37.253795",
                "lon": " -7.229716"
            },
            {
                "nombre": "Málaga",
                "lat": "36.702452",
                "lon": " -4.472161"
            },
            {
                "nombre": "Mataró",
                "lat": "41.532521",
                "lon": "2.423604"
            }
        ],
        "distancia_total": 2008.92,
        "tiempo_total_horas": 20.09,
        "coste_total": 1205.35,
        "ingresos": 5084.8,
        "beneficio": 3879.45
    },
    {
        "id_camion": 39,
        "pedidos": [
            {
                "id_pedido": "1479914",
                "nombre_producto": "Queso cheddar 200gr",
                "cantidad": 591,
                "destino": "Zaragoza"
            },
            {
                "id_pedido": "7888056",
                "nombre_producto": "Queso cheddar 200gr",
                "cantidad": 938,
                "destino": "Palencia"
            }
        ],
        "ruta_optima": [
            {
                "nombre": "Mataró",
                "lat": "41.532521",
                "lon": "2.423604"
            },
            {
                "nombre": "Palencia",
                "lat": "41.964811",
                "lon": " -4.506013"
            },
            {
                "nombre": "Zaragoza",
                "lat": "41.734671",
                "lon": " -1.206108"
            },
            {
                "nombre": "Mataró",
                "lat": "41.532521",
                "lon": "2.423604"
            }
        ],
        "distancia_total": 1153.7,
        "tiempo_total_horas": 11.54,
        "coste_total": 692.22,
        "ingresos": 4892.8,
        "beneficio": 4200.58
    },
    {
        "id_camion": 40,
        "pedidos": [
            {
                "id_pedido": "3580521",
                "nombre_producto": "Queso cheddar 200gr",
                "cantidad": 726,
                "destino": "Lugo"
            },
            {
                "id_pedido": "8794228",
                "nombre_producto": "Queso cheddar 200gr",
                "cantidad": 726,
                "destino": "Cantabria"
            }
        ],
        "ruta_optima": [
            {
                "nombre": "Mataró",
                "lat": "41.532521",
                "lon": "2.423604"
            },
            {
                "nombre": "Lugo",
                "lat": "43.039131",
                "lon": " -7.550207"
            },
            {
                "nombre": "Cantabria",
                "lat": "43.443127",
                "lon": " -3.864163"
            },
            {
                "nombre": "Mataró",
                "lat": "41.532521",
                "lon": "2.423604"
            }
        ],
        "distancia_total": 1696.22,
        "tiempo_total_horas": 16.96,
        "coste_total": 1017.73,
        "ingresos": 4646.4,
        "beneficio": 3628.67
    },
    {
        "id_camion": 41,
        "pedidos": [
            {
                "id_pedido": "7304950",
                "nombre_producto": "Yogur natural 4 unidades (125gr cada uno)",
                "cantidad": 955,
                "destino": "Faro"
            },
            {
                "id_pedido": "9638558",
                "nombre_producto": "Yogur natural 4 unidades (125gr cada uno)",
                "cantidad": 990,
                "destino": "Castellón"
            }
        ],
        "ruta_optima": [
            {
                "nombre": "Mataró",
                "lat": "41.532521",
                "lon": "2.423604"
            },
            {
                "nombre": "Faro",
                "lat": "37.081185",
                "lon": " -7.891208"
            },
            {
                "nombre": "Castellón",
                "lat": "39.97722",
                "lon": " -0.008643"
            },
            {
                "nombre": "Mataró",
                "lat": "41.532521",
                "lon": "2.423604"
            }
        ],
        "distancia_total": 2040.4,
        "tiempo_total_horas": 20.4,
        "coste_total": 1224.24,
        "ingresos": 4862.5,
        "beneficio": 3638.26
    },
    {
        "id_camion": 42,
        "pedidos": [
            {
                "id_pedido": "8866068",
                "nombre_producto": "Mantequilla 100gr",
                "cantidad": 729,
                "destino": "Faro"
            },
            {
                "id_pedido": "4577889",
                "nombre_producto": "Mantequilla 100gr",
                "cantidad": 787,
                "destino": "Jaén"
            }
        ],
        "ruta_optima": [
            {
                "nombre": "Mataró",
                "lat": "41.532521",
                "lon": "2.423604"
            },
            {
                "nombre": "Faro",
                "lat": "37.081185",
                "lon": " -7.891208"
            },
            {
                "nombre": "Jaén",
                "lat": "38.031997",
                "lon": " -4.058837"
            },
            {
                "nombre": "Mataró",
                "lat": "41.532521",
                "lon": "2.423604"
            }
        ],
        "distancia_total": 2045.81,
        "tiempo_total_horas": 20.46,
        "coste_total": 1227.48,
        "ingresos": 2728.8,
        "beneficio": 1501.32
    },
    {
        "id_camion": 43,
        "pedidos": [
            {
                "id_pedido": "1352385",
                "nombre_producto": "Mantequilla 100gr",
                "cantidad": 606,
                "destino": "Alicante"
            },
            {
                "id_pedido": "3965743",
                "nombre_producto": "Mantequilla 100gr",
                "cantidad": 930,
                "destino": "Portalegre"
            }
        ],
        "ruta_optima": [
            {
                "nombre": "Mataró",
                "lat": "41.532521",
                "lon": "2.423604"
            },
            {
                "nombre": "Portalegre",
                "lat": "39.268988",
                "lon": " -7.43448"
            },
            {
                "nombre": "Alicante",
                "lat": "38.34061",
                "lon": " -0.539066"
            },
            {
                "nombre": "Mataró",
                "lat": "41.532521",
                "lon": "2.423604"
            }
        ],
        "distancia_total": 1913.07,
        "tiempo_total_horas": 19.13,
        "coste_total": 1147.84,
        "ingresos": 2764.8,
        "beneficio": 1616.96
    },
    {
        "id_camion": 44,
        "pedidos": [
            {
                "id_pedido": "6273892",
                "nombre_producto": "Mantequilla 100gr",
                "cantidad": 942,
                "destino": "Viana do Castelo"
            }
        ],
        "ruta_optima": [
            {
                "nombre": "Mataró",
                "lat": "41.532521",
                "lon": "2.423604"
            },
            {
                "nombre": "Viana do Castelo",
                "lat": "41.712777",
                "lon": " -8.85317"
            },
            {
                "nombre": "Mataró",
                "lat": "41.532521",
                "lon": "2.423604"
            }
        ],
        "distancia_total": 1873.79,
        "tiempo_total_horas": 18.74,
        "coste_total": 1124.27,
        "ingresos": 1695.6,
        "beneficio": 571.33
    },
    {
        "id_camion": 45,
        "pedidos": [
            {
                "id_pedido": "2874198",
                "nombre_producto": "Mantequilla 100gr",
                "cantidad": 1762,
                "destino": "Encamp"
            }
        ],
        "ruta_optima": [
            {
                "nombre": "Mataró",
                "lat": "41.532521",
                "lon": "2.423604"
            },
            {
                "nombre": "Encamp",
                "lat": "42.463523",
                "lon": " 1.491706"
            },
            {
                "nombre": "Mataró",
                "lat": "41.532521",
                "lon": "2.423604"
            }
        ],
        "distancia_total": 258.04,
        "tiempo_total_horas": 2.58,
        "coste_total": 154.83,
        "ingresos": 3171.6,
        "beneficio": 3016.77
    },
    {
        "id_camion": 46,
        "pedidos": [
            {
                "id_pedido": "7512397",
                "nombre_producto": "Mantequilla 100gr",
                "cantidad": 603,
                "destino": "Ordino"
            }
        ],
        "ruta_optima": [
            {
                "nombre": "Mataró",
                "lat": "41.532521",
                "lon": "2.423604"
            },
            {
                "nombre": "Ordino",
                "lat": "42.581727",
                "lon": " 1.519813"
            },
            {
                "nombre": "Mataró",
                "lat": "41.532521",
                "lon": "2.423604"
            }
        ],
        "distancia_total": 276.97,
        "tiempo_total_horas": 2.77,
        "coste_total": 166.18,
        "ingresos": 1085.4,
        "beneficio": 919.22
    },
    {
        "id_camion": 47,
        "pedidos": [
            {
                "id_pedido": "4174356",
                "nombre_producto": "Carne de ternera picada 500gr",
                "cantidad": 949,
                "destino": "Huelva"
            },
            {
                "id_pedido": "3679651",
                "nombre_producto": "Carne de ternera picada 500gr",
                "cantidad": 633,
                "destino": "Madrid"
            }
        ],
        "ruta_optima": [
            {
                "nombre": "Mataró",
                "lat": "41.532521",
                "lon": "2.423604"
            },
            {
                "nombre": "Huelva",
                "lat": "37.253795",
                "lon": " -7.229716"
            },
            {
                "nombre": "Madrid",
                "lat": "40.399621",
                "lon": " -3.59424"
            },
            {
                "nombre": "Mataró",
                "lat": "41.532521",
                "lon": "2.423604"
            }
        ],
        "distancia_total": 1946.65,
        "tiempo_total_horas": 19.47,
        "coste_total": 1167.99,
        "ingresos": 8701.0,
        "beneficio": 7533.01
    },
    {
        "id_camion": 48,
        "pedidos": [
            {
                "id_pedido": "7268218",
                "nombre_producto": "Carne de ternera picada 500gr",
                "cantidad": 721,
                "destino": "Tarragona"
            },
            {
                "id_pedido": "8030191",
                "nombre_producto": "Carne de ternera picada 500gr",
                "cantidad": 621,
                "destino": "Barcelona"
            }
        ],
        "ruta_optima": [
            {
                "nombre": "Mataró",
                "lat": "41.532521",
                "lon": "2.423604"
            },
            {
                "nombre": "Tarragona",
                "lat": "41.275076",
                "lon": " 1.513732"
            },
            {
                "nombre": "Barcelona",
                "lat": "41.327635",
                "lon": " 2.115424"
            },
            {
                "nombre": "Mataró",
                "lat": "41.532521",
                "lon": "2.423604"
            }
        ],
        "distancia_total": 166.05,
        "tiempo_total_horas": 1.66,
        "coste_total": 99.63,
        "ingresos": 7381.0,
        "beneficio": 7281.37
    },
    {
        "id_camion": 49,
        "pedidos": [
            {
                "id_pedido": "7096342",
                "nombre_producto": "Pechuga de pollo fresca 1kg",
                "cantidad": 720,
                "destino": "Córdoba"
            },
            {
                "id_pedido": "3409202",
                "nombre_producto": "Pechuga de pollo fresca 1kg",
                "cantidad": 971,
                "destino": "Madrid"
            }
        ],
        "ruta_optima": [
            {
                "nombre": "Mataró",
                "lat": "41.532521",
                "lon": "2.423604"
            },
            {
                "nombre": "Córdoba",
                "lat": "37.875219",
                "lon": " -4.763063"
            },
            {
                "nombre": "Madrid",
                "lat": "40.399621",
                "lon": " -3.59424"
            },
            {
                "nombre": "Mataró",
                "lat": "41.532521",
                "lon": "2.423604"
            }
        ],
        "distancia_total": 1555.6,
        "tiempo_total_horas": 15.56,
        "coste_total": 933.36,
        "ingresos": 10146.0,
        "beneficio": 9212.64
    },
    {
        "id_camion": 50,
        "pedidos": [
            {
                "id_pedido": "5740683",
                "nombre_producto": "Pechuga de pollo fresca 1kg",
                "cantidad": 695,
                "destino": "Vila Real"
            },
            {
                "id_pedido": "6763966",
                "nombre_producto": "Pechuga de pollo fresca 1kg",
                "cantidad": 658,
                "destino": "Zaragoza"
            }
        ],
        "ruta_optima": [
            {
                "nombre": "Mataró",
                "lat": "41.532521",
                "lon": "2.423604"
            },
            {
                "nombre": "Vila Real",
                "lat": "41.277143",
                "lon": " -7.712157"
            },
            {
                "nombre": "Zaragoza",
                "lat": "41.734671",
                "lon": " -1.206108"
            },
            {
                "nombre": "Mataró",
                "lat": "41.532521",
                "lon": "2.423604"
            }
        ],
        "distancia_total": 1691.84,
        "tiempo_total_horas": 16.92,
        "coste_total": 1015.1,
        "ingresos": 8118.0,
        "beneficio": 7102.9
    },
    {
        "id_camion": 51,
        "pedidos": [
            {
                "id_pedido": "5712818",
                "nombre_producto": "Filetes de pescado blanco 500gr",
                "cantidad": 563,
                "destino": "Oporto"
            },
            {
                "id_pedido": "2500046",
                "nombre_producto": "Filetes de pescado blanco 500gr",
                "cantidad": 929,
                "destino": "Zamora"
            }
        ],
        "ruta_optima": [
            {
                "nombre": "Mataró",
                "lat": "41.532521",
                "lon": "2.423604"
            },
            {
                "nombre": "Oporto",
                "lat": "41.116767",
                "lon": " -8.574959"
            },
            {
                "nombre": "Zamora",
                "lat": "41.519608",
                "lon": " -5.736363"
            },
            {
                "nombre": "Mataró",
                "lat": "41.532521",
                "lon": "2.423604"
            }
        ],
        "distancia_total": 1839.26,
        "tiempo_total_horas": 18.39,
        "coste_total": 1103.56,
        "ingresos": 10444.0,
        "beneficio": 9340.44
    },
    {
        "id_camion": 52,
        "pedidos": [
            {
                "id_pedido": "9802878",
                "nombre_producto": "Filetes de pescado blanco 500gr",
                "cantidad": 864,
                "destino": "Zaragoza"
            },
            {
                "id_pedido": "1912403",
                "nombre_producto": "Filetes de pescado blanco 500gr",
                "cantidad": 987,
                "destino": "Sant Julià de Lòria"
            }
        ],
        "ruta_optima": [
            {
                "nombre": "Mataró",
                "lat": "41.532521",
                "lon": "2.423604"
            },
            {
                "nombre": "Zaragoza",
                "lat": "41.734671",
                "lon": " -1.206108"
            },
            {
                "nombre": "Sant Julià de Lòria",
                "lat": "42.468846",
                "lon": " 1.493294"
            },
            {
                "nombre": "Mataró",
                "lat": "41.532521",
                "lon": "2.423604"
            }
        ],
        "distancia_total": 669.07,
        "tiempo_total_horas": 6.69,
        "coste_total": 401.44,
        "ingresos": 12957.0,
        "beneficio": 12555.56
    },
    {
        "id_camion": 53,
        "pedidos": [
            {
                "id_pedido": "3762625",
                "nombre_producto": "Filetes de pescado blanco 500gr",
                "cantidad": 946,
                "destino": "A Coruña"
            }
        ],
        "ruta_optima": [
            {
                "nombre": "Mataró",
                "lat": "41.532521",
                "lon": "2.423604"
            },
            {
                "nombre": "A Coruña",
                "lat": "43.269516",
                "lon": " -8.411087"
            },
            {
                "nombre": "Mataró",
                "lat": "41.532521",
                "lon": "2.423604"
            }
        ],
        "distancia_total": 1819.33,
        "tiempo_total_horas": 18.19,
        "coste_total": 1091.6,
        "ingresos": 6622.0,
        "beneficio": 5530.4
    },
    {
        "id_camion": 54,
        "pedidos": [
            {
                "id_pedido": "5481807",
                "nombre_producto": "Jamón serrano loncheado 150gr",
                "cantidad": 770,
                "destino": "Cádiz"
            },
            {
                "id_pedido": "3746579",
                "nombre_producto": "Jamón serrano loncheado 150gr",
                "cantidad": 731,
                "destino": "Albacete"
            }
        ],
        "ruta_optima": [
            {
                "nombre": "Mataró",
                "lat": "41.532521",
                "lon": "2.423604"
            },
            {
                "nombre": "Cádiz",
                "lat": "36.407357",
                "lon": " -6.128702"
            },
            {
                "nombre": "Albacete",
                "lat": "39.014444",
                "lon": " -1.88264"
            },
            {
                "nombre": "Mataró",
                "lat": "41.532521",
                "lon": "2.423604"
            }
        ],
        "distancia_total": 1865.61,
        "tiempo_total_horas": 18.66,
        "coste_total": 1119.37,
        "ingresos": 6754.5,
        "beneficio": 5635.13
    },
    {
        "id_camion": 55,
        "pedidos": [
            {
                "id_pedido": "8810785",
                "nombre_producto": "Jamón serrano loncheado 150gr",
                "cantidad": 824,
                "destino": "Madrid"
            },
            {
                "id_pedido": "2496114",
                "nombre_producto": "Jamón serrano loncheado 150gr",
                "cantidad": 825,
                "destino": "Zamora"
            }
        ],
        "ruta_optima": [
            {
                "nombre": "Mataró",
                "lat": "41.532521",
                "lon": "2.423604"
            },
            {
                "nombre": "Zamora",
                "lat": "41.519608",
                "lon": " -5.736363"
            },
            {
                "nombre": "Madrid",
                "lat": "40.399621",
                "lon": " -3.59424"
            },
            {
                "nombre": "Mataró",
                "lat": "41.532521",
                "lon": "2.423604"
            }
        ],
        "distancia_total": 1418.43,
        "tiempo_total_horas": 14.18,
        "coste_total": 851.06,
        "ingresos": 7420.5,
        "beneficio": 6569.44
    }
]